<?xml version="1.0" encoding="utf-8"?>
<ArrayOfVolunteer>
  <Volunteer>
    <Id>276965970</Id>
    <Name>Shira</Name>
    <Phone>0527614424</Phone>
    <Email>Shira0527614424@gmail.com</Email>
    <Password>op*pix&amp;iZ&amp;</Password>
    <Address>Hare'em 14</Address>
    <latitude>31.780125</latitude>
    <longitude>35.207889</longitude>
    <Role>STANDARD</Role>
    <Active>true</Active>
    <IsActive>false</IsActive>
    <MaxDistance>767</MaxDistance>
    <TypeOfDistance>WALK</TypeOfDistance>
  </Volunteer>
  <Volunteer>
    <Id>922719727</Id>
    <Name>Moishy</Name>
    <Phone>0527614425</Phone>
    <Email>Moishy0527614425@gmail.com</Email>
    <Password>(zdMnv9K26</Password>
    <Address>Eben Ezra 6</Address>
    <latitude>31.792178</latitude>
    <longitude>35.205321</longitude>
    <Role>STANDARD</Role>
    <Active>true</Active>
    <MaxDistance>893</MaxDistance>
    <TypeOfDistance>AIR</TypeOfDistance>
  </Volunteer>
  <Volunteer>
    <Id>898967391</Id>
    <Name>Efraim</Name>
    <Phone>0527614426</Phone>
    <Email>Efraim0527614426@gmail.com</Email>
    <Password>A7bR#ZX^^2</Password>
    <Address>HaTzvi 4</Address>
    <latitude>31.784222</latitude>
    <longitude>35.213127</longitude>
    <Role>STANDARD</Role>
    <Active>true</Active>
    <MaxDistance>419</MaxDistance>
    <TypeOfDistance>WALK</TypeOfDistance>
  </Volunteer>
  <Volunteer>
    <Id>581241777</Id>
    <Name>Shloimy</Name>
    <Phone>0527614427</Phone>
    <Email>Shloimy0527614427@gmail.com</Email>
    <Password>pnK6U31HCR</Password>
    <Address>Hakfir 5</Address>
    <latitude>31.797433</latitude>
    <longitude>35.214278</longitude>
    <Role>STANDARD</Role>
    <Active>true</Active>
    <MaxDistance>974</MaxDistance>
    <TypeOfDistance>WALK</TypeOfDistance>
  </Volunteer>
  <Volunteer>
    <Id>993657750</Id>
    <Name>Yosi</Name>
    <Phone>0527614428</Phone>
    <Email>Yosi0527614428@gmail.com</Email>
    <Password>2tvFx(*92!</Password>
    <Address>Hadishon 6</Address>
    <latitude>31.798189</latitude>
    <longitude>35.206539</longitude>
    <Role>STANDARD</Role>
    <Active>false</Active>
    <MaxDistance>908</MaxDistance>
    <TypeOfDistance>WALK</TypeOfDistance>
  </Volunteer>
  <Volunteer>
    <Id>742905539</Id>
    <Name>Yoni</Name>
    <Phone>0527614429</Phone>
    <Email>Yoni0527614429@gmail.com</Email>
    <Password>C0pjk1NzwI</Password>
    <Address>Ha'ari 13</Address>
    <latitude>31.794056</latitude>
    <longitude>35.221325</longitude>
    <Role>STANDARD</Role>
    <Active>true</Active>
    <MaxDistance>959</MaxDistance>
    <TypeOfDistance>AIR</TypeOfDistance>
  </Volunteer>
  <Volunteer>
    <Id>613939541</Id>
    <Name>Avi</Name>
    <Phone>0527614430</Phone>
    <Email>Avi0527614430@gmail.com</Email>
    <Password>aAmrbepq#3</Password>
    <Address>Hatan 17</Address>
    <latitude>31.798832</latitude>
    <longitude>35.214994</longitude>
    <Role>STANDARD</Role>
    <Active>true</Active>
    <MaxDistance>450</MaxDistance>
    <TypeOfDistance>WALK</TypeOfDistance>
  </Volunteer>
  <Volunteer>
    <Id>690509679</Id>
    <Name>Chaim</Name>
    <Phone>0527614431</Phone>
    <Email>Chaim0527614431@gmail.com</Email>
    <Password>%1IlDaLWn%</Password>
    <Address>Tchelet Mordechei 18</Address>
    <latitude>31.799845</latitude>
    <longitude>35.227146</longitude>
    <Role>STANDARD</Role>
    <Active>true</Active>
    <MaxDistance>166</MaxDistance>
    <TypeOfDistance>AIR</TypeOfDistance>
  </Volunteer>
  <Volunteer>
    <Id>849304831</Id>
    <Name>Ester</Name>
    <Phone>0527614432</Phone>
    <Email>Ester0527614432@gmail.com</Email>
    <Password>chNF08*vWn</Password>
    <Address>Hamarkalim 4</Address>
    <latitude>31.780829</latitude>
    <longitude>35.229744</longitude>
    <Role>STANDARD</Role>
    <Active>true</Active>
    <MaxDistance>978</MaxDistance>
    <TypeOfDistance>WALK</TypeOfDistance>
  </Volunteer>
  <Volunteer>
    <Id>639848300</Id>
    <Name>Rachel</Name>
    <Phone>0527614433</Phone>
    <Email>Rachel0527614433@gmail.com</Email>
    <Password>qBf$@2HDyS</Password>
    <Address>Rabi Akiva 15</Address>
    <latitude>31.781869</latitude>
    <longitude>35.236349</longitude>
    <Role>STANDARD</Role>
    <Active>true</Active>
    <MaxDistance>595</MaxDistance>
    <TypeOfDistance>WALK</TypeOfDistance>
  </Volunteer>
  <Volunteer>
    <Id>740906101</Id>
    <Name>Shani</Name>
    <Phone>0527614434</Phone>
    <Email>Shani0527614434@gmail.com</Email>
    <Password>ca*)&amp;UrEgJ</Password>
    <Address>Hazon Ish 53</Address>
    <latitude>31.799467</latitude>
    <longitude>35.240458</longitude>
    <Role>STANDARD</Role>
    <Active>true</Active>
    <MaxDistance>250</MaxDistance>
    <TypeOfDistance>WALK</TypeOfDistance>
  </Volunteer>
  <Volunteer>
    <Id>556274315</Id>
    <Name>Michali</Name>
    <Phone>0527614435</Phone>
    <Email>Michali0527614435@gmail.com</Email>
    <Password>p!L2z#7h@m}</Password>
    <Address>Harav Shach 3</Address>
    <latitude>31.788469</latitude>
    <longitude>35.235679</longitude>
    <Role>STANDARD</Role>
    <Active>true</Active>
    <MaxDistance>575</MaxDistance>
    <TypeOfDistance>WALK</TypeOfDistance>
  </Volunteer>
  <Volunteer>
    <Id>216223669</Id>
    <Name>Rachel</Name>
    <Phone>0583251410</Phone>
    <Email>racheli@gmail.com</Email>
    <Password>DE3A63953EA1F5D22DADC3FD28EBB73756BAA30BE613C78ACB01745537DEFA9A</Password>
    <Address>Man 3 Jerusalem Israel</Address>
    <latitude>31.761716</latitude>
    <longitude>35.1984241</longitude>
    <Role>ADMINISTRATOR</Role>
    <Active>false</Active>
    <MaxDistance>1</MaxDistance>
    <TypeOfDistance>WALK</TypeOfDistance>
  </Volunteer>
  <Volunteer>
    <Id>328118245</Id>
    <Name>Batya Oren</Name>
    <Phone>0583278625</Phone>
    <Email>batyabracha2005@gmail.com</Email>
    <Password>5E884898DA28047151D0E56F8DC6292773603D0D6AABBDD62A11EF721D1542D8</Password>
    <Address>Ha'ayalot 25</Address>
    <latitude>31.869553</latitude>
    <longitude>35.140127</longitude>
    <Role>ADMINISTRATOR</Role>
    <Active>true</Active>
    <MaxDistance>250</MaxDistance>
    <TypeOfDistance>AIR</TypeOfDistance>
  </Volunteer>
  <Volunteer>
    <Id>341395549</Id>
    <Name>Malka</Name>
    <Phone>0989878876</Phone>
    <Email>tyu@gmail.com</Email>
    <Password>E3B0C44298FC1C149AFBF4C8996FB92427AE41E4649B934CA495991B7852B855</Password>
    <Address>Man 3</Address>
    <latitude>18.2280315</latitude>
    <longitude>-65.76072630634643</longitude>
    <Role>STANDARD</Role>
    <Active>true</Active>
    <MaxDistance>234</MaxDistance>
    <TypeOfDistance>WALK</TypeOfDistance>
  </Volunteer>
  <Volunteer>
    <Id>328263249</Id>
    <Name>batsheva</Name>
    <Phone>0545454545</Phone>
    <Email>b7malka@gmail.com</Email>
    <Password>EA71C25A7A602246B4C39824B855678894A96F43BB9B71319C39700A1E045222</Password>
    <Address>Man 3</Address>
    <latitude>18.2280315</latitude>
    <longitude>-65.76072630634643</longitude>
    <Role>STANDARD</Role>
    <Active>false</Active>
    <MaxDistance>1</MaxDistance>
    <TypeOfDistance>WALK</TypeOfDistance>
  </Volunteer>
  <Volunteer>
    <Id>123456782</Id>
    <Name>Meni</Name>
    <Phone>0989898989</Phone>
    <Email>meni@gmail.com</Email>
    <Password>C9D3DA531D5F49F7570AE4A5B3C2633AED75A0E55A7803B0CB1D4FB86EA4734E</Password>
    <Address>Man 3</Address>
    <latitude>18.2280315</latitude>
    <longitude>-65.76072630634643</longitude>
    <Role>STANDARD</Role>
    <Active>true</Active>
    <MaxDistance>20</MaxDistance>
    <TypeOfDistance>AIR</TypeOfDistance>
  </Volunteer>
</ArrayOfVolunteer>